City_ID,City,Lat,Lng,Max Temp,Humidity,Cloudiness,Wind Speed,Country,Date
0,badger,64.8,-147.5333,-3.07,87,100,0.0,US,1697128471
1,west island,-12.1568,96.8225,25.99,78,100,7.72,CC,1697128597
2,east london,-33.0153,27.9116,16.52,82,20,4.63,ZA,1697128524
3,ust-nera,64.5667,143.2,-12.1,97,92,2.24,RU,1697128598
4,pionerskiy,54.9508,20.2275,14.52,65,3,13.38,RU,1697128598
5,blackmans bay,-43.0167,147.3167,9.18,85,99,0.45,AU,1697128598
6,punta arenas,-53.15,-70.9167,11.06,62,40,12.35,CL,1697128599
7,isafjordur,66.0755,-23.124,2.02,87,100,14.92,IS,1697128599
8,bikenibeu village,1.3673,173.1241,26.98,89,20,0.0,KI,1697128599
9,keflavik,64.0049,-22.5624,4.95,75,100,13.38,IS,1697128599
10,mulayjah,27.271,48.4242,29.7,46,0,3.72,SA,1697128600
11,papatowai,-46.5619,169.4708,11.97,60,98,3.72,NZ,1697128600
12,coquimbo,-29.9533,-71.3436,16.85,63,0,6.69,CL,1697128600
13,avarua,-21.2078,-159.775,20.03,100,100,1.54,CK,1697128600
14,invercargill,-46.4,168.35,12.23,65,100,2.68,NZ,1697128601
15,sur,22.5667,59.5289,30.16,56,0,2.31,OM,1697128601
16,necochea,-38.5473,-58.7368,13.32,45,0,3.2,AR,1697128601
17,anadyr,64.75,177.4833,4.28,100,75,9.0,RU,1697128601
18,atafu village,-8.5421,-172.5159,28.71,76,14,6.13,TK,1697128602
19,makurazaki,31.2667,130.3167,18.5,68,1,3.66,JP,1697128602
20,katabu,-4.9333,122.5167,23.33,93,85,1.66,ID,1697128602
21,saurimo,-9.6608,20.3916,25.06,58,92,1.52,AO,1697128316
22,ghanzi,-21.5667,21.7833,28.51,31,82,5.06,BW,1697128603
23,ende,-8.8432,121.6623,24.83,77,84,0.96,ID,1697128603
24,tura,25.5198,90.2201,22.08,83,1,1.22,IN,1697128603
25,olonkinbyen,70.9221,-8.7187,1.02,74,97,8.56,SJ,1697128603
26,tiksi,71.6872,128.8694,-5.52,91,100,4.54,RU,1697128604
27,fortuna,40.5982,-124.1573,10.55,97,100,4.12,US,1697128604
28,codrington,-38.2667,141.9667,11.81,78,100,7.32,AU,1697128604
29,okhotsk,59.3833,143.3,-0.49,57,30,2.58,RU,1697128604
30,singaraja,-8.112,115.0882,25.67,82,91,1.59,ID,1697128605
31,puerto deseado,-47.7503,-65.8938,10.68,46,10,6.93,AR,1697128605
32,chandler,33.3062,-111.8412,27.6,35,0,2.06,US,1697128605
33,aranyaprathet,13.6928,102.5013,24.82,92,89,1.21,TH,1697128605
34,adamstown,-25.066,-130.1015,20.38,74,93,4.91,PN,1697128606
35,klyuchi,52.2667,79.1667,6.37,86,100,1.34,RU,1697128606
36,egilsstadir,65.2653,-14.3948,2.95,87,75,9.26,IS,1697128606
37,pula,44.8683,13.8481,20.31,83,20,1.54,HR,1697128606
38,iqaluit,63.7506,-68.5145,-0.15,86,75,1.54,CA,1697128607
39,talnakh,69.4865,88.3972,-1.55,94,100,1.49,RU,1697128607
40,waitangi,-43.9535,-176.5597,8.23,79,99,0.89,NZ,1697128607
41,kimbe,-5.5502,150.1429,24.77,92,67,1.36,PG,1697128607
42,neiafu,-18.65,-173.9833,23.38,83,20,0.0,TO,1697128608
43,vadso,70.0744,29.7487,3.49,93,20,10.8,NO,1697128608
44,maun,-19.9833,23.4167,33.42,18,56,3.05,BW,1697128608
45,thompson,55.7435,-97.8558,6.09,93,75,1.03,CA,1697128511
46,chifeng,42.2683,118.9636,10.87,81,2,2.56,CN,1697128609
47,kavieng,-2.5744,150.7967,27.4,77,74,0.85,PG,1697128609
48,puerto ayora,-0.7393,-90.3518,27.98,73,74,4.37,EC,1697128610
49,lompoc,34.6391,-120.4579,21.08,65,0,3.6,US,1697128610
50,pasighat,28.0667,95.3333,22.43,86,4,1.74,IN,1697128610
51,jamestown,42.097,-79.2353,15.57,62,40,0.45,US,1697128369
52,uturoa,-16.7333,-151.4333,26.13,70,19,8.25,PF,1697128611
53,el burgo de osma,41.5862,-3.0652,22.54,26,12,0.91,ES,1697128611
54,bredasdorp,-34.5322,20.0403,14.6,86,24,5.98,ZA,1697128611
55,karak city,31.1637,35.762,19.88,27,0,2.39,JO,1697128611
56,port-aux-francais,-49.35,70.2167,1.3,83,99,9.15,TF,1697128612
57,new norfolk,-42.7826,147.0587,9.84,88,100,2.17,AU,1697128547
58,sisimiut,66.9395,-53.6735,-0.27,60,100,1.93,GL,1697128612
59,pisco,-13.7,-76.2167,20.57,77,27,4.12,PE,1697128612
60,kenai,60.5544,-151.2583,1.75,97,100,3.09,US,1697128527
61,horta,38.5333,-28.6333,22.23,77,40,6.26,PT,1697128613
62,issia,6.4922,-6.5856,25.7,91,68,1.63,CI,1697128613
63,merizo village,13.2658,144.6691,28.32,92,100,11.03,GU,1697128614
64,qaqortoq,60.7167,-46.0333,3.68,79,99,0.72,GL,1697128614
65,kingston,17.997,-76.7936,33.47,69,20,7.2,JM,1697128614
66,tumaco,1.7986,-78.8156,26.02,86,100,3.4,CO,1697128614
67,ribeira grande,38.5167,-28.7,22.65,73,40,6.26,PT,1697128615
68,mahina,-17.5065,-149.489,23.87,83,0,1.54,PF,1697128615
69,edinburgh of the seven seas,-37.0676,-12.3116,13.07,73,7,5.48,SH,1697128615
70,faya-largeau,17.9257,19.1043,34.62,16,5,4.95,TD,1697128616
71,port mathurin,-19.6833,63.4167,23.5,73,10,4.21,MU,1697128616
72,hamilton,39.1834,-84.5333,23.74,65,0,3.09,US,1697128616
73,bijar,35.8668,47.6051,9.96,69,52,4.47,IR,1697128616
74,winnemucca,40.973,-117.7357,7.03,70,0,3.09,US,1697128616
75,yellowknife,62.456,-114.3525,6.29,100,100,2.57,CA,1697128509
76,lensk,60.7253,114.9278,12.62,66,91,4.92,RU,1697128398
77,puerto natales,-51.7236,-72.4875,12.25,54,40,6.69,CL,1697128617
78,midvagur,62.0511,-7.1939,7.46,87,100,6.17,FO,1697128617
79,nizhniy odes,63.6445,54.856,0.39,97,100,4.57,RU,1697128618
80,rahimah,26.7079,50.0619,32.12,68,0,4.34,SA,1697128618
81,walvis bay,-22.9575,14.5053,21.53,56,0,7.72,,1697128618
82,tavernes de la valldigna,39.0667,-0.2667,26.03,78,0,2.55,ES,1697128618
83,taro,-8.3862,115.28,23.0,96,94,0.26,ID,1697128619
84,carnarvon,-24.8667,113.6333,24.04,61,89,5.6,AU,1697128619
85,san mariano,7.5,126.0,23.52,94,100,0.95,PH,1697128619
86,albany,42.6001,-73.9662,18.86,58,28,0.89,US,1697128619
87,yingkou,40.6648,122.2283,16.95,74,100,2.91,CN,1697128620
88,pandan,14.0453,124.1694,26.7,87,76,2.17,PH,1697128620
89,nadvoitsy,63.8667,34.3167,3.93,78,88,7.82,RU,1697128620
90,daru,-9.0763,143.2092,24.94,92,100,5.4,PG,1697128620
91,xilin hot,43.9667,116.0333,7.79,71,99,2.01,CN,1697128621
92,radhanpur,23.8333,71.6,29.38,54,0,2.03,IN,1697128621
93,kerikeri,-35.2268,173.9474,6.62,91,12,1.71,NZ,1697128621
94,campbellton,48.0075,-66.6727,13.25,62,83,1.89,CA,1697128622
95,acarau,-2.8856,-40.12,30.83,59,55,8.02,BR,1697128622
96,grytviken,-54.2811,-36.5092,-1.49,93,97,2.0,GS,1697128622
97,praia da vitoria,38.7333,-27.0667,23.2,68,20,5.07,PT,1697128622
98,ilulissat,69.2167,-51.1,-3.99,54,40,5.66,GL,1697128623
99,argo,37.6333,22.7333,19.88,51,2,1.42,GR,1697128623
100,neverkino,52.7854,46.7417,8.5,30,100,9.87,RU,1697128623
101,idil,37.3411,41.8895,22.96,33,20,3.6,TR,1697128615
102,dudinka,69.4058,86.1778,1.49,93,99,6.71,RU,1697128624
103,san pedro,14.35,121.0167,27.57,91,20,1.34,PH,1697128624
104,laguna,38.421,-121.4238,20.72,66,0,3.09,US,1697128624
105,nova xavantina,-14.6667,-52.35,38.49,24,43,2.14,BR,1697128625
106,nilanga,18.1,76.7667,23.62,58,48,3.85,IN,1697128625
107,hadibu,12.65,54.0333,27.46,81,76,3.08,YE,1697128625
108,magadan,59.5667,150.8,-4.54,74,100,4.02,RU,1697128626
109,kodiak,57.79,-152.4072,2.73,60,100,6.17,US,1697128626
110,noosa heads,-26.3833,153.15,18.95,82,4,6.07,AU,1697128627
111,lautoka,-17.6167,177.4667,21.92,83,20,2.57,FJ,1697128627
112,margaret river,-33.95,115.0667,11.14,90,1,5.55,AU,1697128609
113,mityana,0.4175,32.0228,18.79,84,55,0.86,UG,1697128628
114,atoyac de alvarez,17.2,-100.4333,29.63,70,29,1.63,MX,1697128628
115,hobyo,5.3505,48.5268,27.32,80,5,4.78,SO,1697128628
116,kizilcahamam,40.4697,32.6506,14.79,45,0,1.08,TR,1697128629
117,gracias,14.5833,-88.5833,27.81,57,62,2.37,HN,1697128629
118,bethel,41.3712,-73.414,20.86,55,0,3.09,US,1697128629
119,puerto san jose,13.9256,-90.8244,29.09,74,61,2.39,GT,1697128629
120,vilyuchinsk,52.9306,158.4028,3.85,78,86,2.15,RU,1697128630
121,homer,59.6425,-151.5483,2.93,83,75,4.47,US,1697128519
122,ancud,-41.8697,-73.8203,11.34,58,12,3.53,CL,1697128630
123,ostersund,63.1792,14.6357,6.45,81,40,6.69,SE,1697128630
124,puerto baquerizo moreno,-0.9,-89.6,27.55,69,20,5.66,EC,1697128631
125,guozhen,34.3659,107.359,14.71,84,99,1.77,CN,1697128631
126,send,51.2888,-0.5267,17.45,87,75,1.03,GB,1697128631
127,bilibino,68.0546,166.4372,-6.69,91,100,2.72,RU,1697128632
128,saldanha,-33.0117,17.9442,18.03,82,5,8.24,ZA,1697128632
129,isangel,-19.55,169.2667,21.38,88,100,2.82,VU,1697128632
130,enewetak,11.3474,162.3373,28.18,76,47,4.07,MH,1697128632
131,nantucket,41.2835,-70.0995,21.03,73,75,4.12,US,1697128510
132,ushuaia,-54.8,-68.3,10.79,66,20,12.86,AR,1697128633
133,namsos,64.4662,11.4957,7.03,93,75,3.6,NO,1697128633
134,sabha,27.0377,14.4283,26.42,26,12,2.99,LY,1697128634
135,songea,-10.6833,35.65,28.64,32,0,1.54,TZ,1697128634
136,college,64.8569,-147.8028,-3.03,83,100,0.0,US,1697128570
137,usinsk,65.9939,57.5281,-1.07,98,100,2.24,RU,1697128634
138,haikou,20.0458,110.3417,26.07,83,0,3.0,CN,1697128635
139,westport,41.1415,-73.3579,21.61,62,1,0.89,US,1697128635
140,arraial do cabo,-22.9661,-42.0278,32.98,66,0,8.23,BR,1697128635
141,kulhudhuffushi,6.6221,73.07,27.18,76,100,1.55,MV,1697128636
142,hermanus,-34.4187,19.2345,15.08,84,59,5.34,ZA,1697128636
143,kittila,67.6647,24.8936,2.08,80,75,9.77,FI,1697128636
144,san luis de la loma,17.2706,-100.8939,28.56,74,7,2.16,MX,1697128636
145,belmonte,-15.8631,-38.8828,27.63,56,12,4.83,BR,1697128637
146,geraldton,-28.7667,114.6,18.23,59,96,5.14,AU,1697128637
147,alofi,-19.0595,-169.9187,20.94,94,98,2.06,NU,1697128638
148,lebyazh'ye,55.2689,66.4947,4.3,71,72,3.91,RU,1697128638
149,dakhla,23.6848,-15.958,24.32,63,0,7.11,EH,1697128638
150,indi,17.1667,75.9667,27.55,47,17,5.75,IN,1697128638
151,jedrzejow,50.6394,20.3045,15.2,96,100,6.17,PL,1697128639
152,ola,59.5833,151.2833,-4.21,56,99,2.98,RU,1697128639
153,kurumkan,54.3,110.3,10.63,63,59,2.24,RU,1697128639
154,guerrero negro,27.9769,-114.0611,21.06,59,43,6.16,MX,1697128639
155,port elizabeth,-33.918,25.5701,19.16,76,20,7.72,ZA,1697128640
156,georgetown,5.4112,100.3354,27.23,92,40,2.06,MY,1697128612
157,petropavlovsk-kamchatsky,53.0452,158.6483,3.03,73,75,6.71,RU,1697128640
158,touros,-5.1989,-35.4608,29.11,64,1,7.64,BR,1697128641
159,shantipur,23.25,88.4667,26.04,57,23,1.74,IN,1697128641
160,swan hill,-35.3378,143.5544,6.21,88,0,3.12,AU,1697128641
161,linhares,-19.3911,-40.0722,33.53,31,4,4.66,BR,1697128355
162,alva,56.1528,-3.8051,11.48,76,95,1.34,GB,1697128642
163,soure,-0.7167,-48.5233,31.26,59,76,5.71,BR,1697128642
164,buka,40.8108,69.1986,16.58,41,100,2.68,UZ,1697128642
165,san patricio,28.017,-97.5169,29.92,67,80,3.96,US,1697128642
166,tughyl,47.7252,84.2063,15.54,54,93,6.9,KZ,1697128643
167,lee acres,35.1487,-106.647,18.66,30,40,7.2,US,1697128643
168,burang,30.25,81.1667,4.26,78,6,1.53,CN,1697128643
169,fort st. john,56.2499,-120.8529,6.94,93,40,2.06,CA,1697128438
170,motygino,58.1831,94.7592,5.99,67,100,2.68,RU,1697128644
171,mar del plata,-38.0023,-57.5575,13.86,63,40,5.66,AR,1697128644
172,gereida,11.2811,25.1414,32.49,33,72,2.5,SD,1697128644
173,callao,-12.0667,-77.15,19.16,77,75,3.6,PE,1697128645
174,manaure,11.7751,-72.4445,33.79,55,62,6.14,CO,1697128645
175,ust-tsilma,65.441,52.1498,-0.77,81,100,5.36,RU,1697128645
176,palora,-1.7,-77.9333,27.06,41,72,2.35,EC,1697128645
177,maragogi,-9.0122,-35.2225,27.43,67,45,4.63,BR,1697128634
178,flying fish cove,-10.4217,105.6791,24.82,94,100,3.6,CX,1697128646
179,north battleford,52.7834,-108.2847,6.05,93,100,4.63,CA,1697128382
180,jiayuguan,39.8167,98.3,10.87,29,61,1.97,CN,1697128646
181,fort wellington,6.4,-57.6,32.31,55,5,4.49,GY,1697128647
182,qurayyat,31.3318,37.3428,26.1,27,0,2.06,SA,1697128647
183,juneau,58.3019,-134.4197,7.34,97,100,1.54,US,1697128647
184,pitimbu,-7.4706,-34.8086,30.33,70,23,4.89,BR,1697128648
185,aberdeen,57.1437,-2.0981,11.27,79,75,5.14,GB,1697128366
186,tolanaro,-25.0319,46.9987,21.04,94,75,7.2,MG,1697128496
187,cooper's town,26.8667,-77.5167,28.72,85,100,9.62,BS,1697128648
188,sayanogorsk,53.0875,91.3997,10.62,74,100,1.24,RU,1697128649
189,rosarito,32.3333,-117.0333,20.78,70,0,2.04,MX,1697128649
190,jacobina,-11.1806,-40.5183,33.6,22,0,3.59,BR,1697128649
191,hays,30.0502,-98.0336,22.47,87,100,2.24,US,1697128650
192,dhidhdhoo,6.8833,73.1,27.45,76,100,1.9,MV,1697128522
193,nar'yan-mar,67.6713,53.087,1.17,76,100,4.02,RU,1697128397
194,bolobo,-2.1667,16.2333,26.99,68,76,0.51,CD,1697128650
195,mount isa,-20.7333,139.5,16.87,72,25,0.0,AU,1697128651
196,kapa'a,22.0752,-159.319,24.18,84,75,5.66,US,1697128651
197,wailua homesteads,22.0669,-159.378,23.44,84,75,5.66,US,1697128651
198,pochep,52.9336,33.4464,13.18,90,100,6.53,RU,1697128651
199,la arena,-5.3466,-80.7109,30.65,42,84,4.32,PE,1697128652
200,makoua,0.0069,15.6333,27.44,68,73,0.84,CG,1697128652
201,conceicao do mato dentro,-19.0372,-43.425,35.98,26,9,1.32,BR,1697128652
202,labrador city,52.9463,-66.9114,8.95,87,100,2.57,CA,1697128467
203,sitka,57.0531,-135.33,11.94,71,100,7.2,US,1697128499
204,aligudarz,33.4006,49.6949,17.2,42,74,2.47,IR,1697128653
205,shenjiamen,29.9576,122.298,21.96,66,100,5.44,CN,1697128653
206,stanley,54.868,-1.6985,10.99,70,20,3.09,GB,1697128367
207,eyl,7.9803,49.8164,27.36,78,7,4.47,SO,1697128654
208,vernon,50.2581,-119.2691,9.61,71,6,1.03,CA,1697128512
209,iskateley,67.6803,53.1512,1.12,76,100,4.02,RU,1697128654
210,plouzane,48.3833,-4.6167,19.18,94,100,5.14,FR,1697128655
211,vyerkhnyadzvinsk,55.7815,27.9443,10.36,76,51,7.78,BY,1697128655
212,vizinga,61.0749,50.1031,3.61,96,100,4.22,RU,1697128655
213,qina,26.1642,32.7267,28.87,23,0,4.9,EG,1697128419
214,brisas de zicatela,15.8369,-97.0419,30.29,58,40,1.54,MX,1697128656
215,hasaki,35.7333,140.8333,15.22,52,2,5.31,JP,1697128656
216,peniche,39.3558,-9.3811,31.16,71,14,6.06,PT,1697128460
217,damasak,13.0977,12.4952,35.88,24,17,3.97,NG,1697128656
218,richards bay,-28.783,32.0377,22.89,85,100,5.93,ZA,1697128657
219,al faw,29.9776,48.4741,32.0,61,0,4.0,IQ,1697128657
220,hawaiian paradise park,19.5933,-154.9731,22.24,76,100,2.57,US,1697128657
221,haiku-pauwela,20.9219,-156.3051,23.91,83,20,0.0,US,1697128658
222,whitehorse,60.7161,-135.0538,2.43,80,100,8.75,CA,1697128658
223,kyaukse,21.6,96.1333,24.39,91,60,1.64,MM,1697128658
224,gelnhausen,50.2,9.1833,17.9,89,100,1.55,DE,1697128659
225,nadarzyn,52.0944,20.8078,15.48,87,40,3.09,PL,1697128659
226,sao paulo de olivenca,-3.3783,-68.8725,40.23,28,72,0.43,BR,1697128659
227,barra de santo antonio,-9.4047,-35.5072,29.6,70,39,4.89,BR,1697128659
228,colonia menno,-22.3667,-59.8167,17.63,67,100,6.72,PY,1697128660
229,sake,-1.5736,29.045,17.85,93,95,0.29,CD,1697128660
230,ciudad lazaro cardenas,17.9583,-102.2,27.75,79,60,1.6,MX,1697128660
231,timoteo,-19.5825,-42.6444,29.48,32,16,2.36,BR,1697128660
232,nemuro,43.3236,145.575,12.74,77,0,3.19,JP,1697128661
233,zhangye,38.9342,100.4517,13.54,34,100,2.45,CN,1697128661
234,waingapu,-9.6567,120.2641,26.19,77,55,4.61,ID,1697128662
235,kasongo-lunda,-6.4667,16.8167,24.39,82,36,2.35,CD,1697128662
236,berezovyy,51.6667,135.7,8.31,77,46,3.26,RU,1697128662
237,kresttsy,58.2452,32.5165,8.97,76,66,6.34,RU,1697128662
238,cabedelo,-6.9811,-34.8339,30.37,70,25,5.64,BR,1697128663
239,oranjemund,-28.55,16.4333,15.89,82,0,5.61,,1697128663
240,chongwe,-15.3292,28.682,31.32,25,65,2.03,ZM,1697128663
241,northam,51.0333,-4.2167,16.45,98,100,5.65,GB,1697128664
242,longyearbyen,78.2186,15.6401,-4.09,63,75,3.09,SJ,1697128664
243,selfoss,63.9331,-20.9971,5.02,71,100,6.88,IS,1697128664
244,kolpashevo,58.3131,82.9089,7.28,67,100,5.36,RU,1697128664
245,sola,-13.8833,167.55,25.45,82,93,9.7,VU,1697128665
246,atasu,48.6814,71.6433,5.48,80,100,4.93,KZ,1697128665
247,hithadhoo,-0.6,73.0833,27.84,71,35,5.84,MV,1697128665
248,spring creek,40.7266,-115.5859,6.56,60,100,2.37,US,1697128390
249,sarmiento,-45.5882,-69.07,11.62,44,17,1.48,AR,1697128666
250,ponta delgada,37.7333,-25.6667,22.4,78,20,7.2,PT,1697128666
251,bandar lampung,-5.4254,105.258,23.42,90,41,1.2,ID,1697128666
252,san pedro pochutla,15.7333,-96.4667,29.84,55,96,4.81,MX,1697128666
253,la'ie,21.6477,-157.9253,24.5,77,2,1.34,US,1697128667
254,tongchuanshi,35.0806,109.0897,13.75,81,94,1.2,CN,1697128667
255,maasin,10.1336,124.8447,27.51,77,23,1.64,PH,1697128667
256,nguigmi,14.2495,13.1092,31.06,41,16,3.65,NE,1697128667
257,kibiya,11.5263,8.6623,31.65,26,81,3.27,NG,1697128668
258,okondja,-0.6549,13.6753,25.95,78,88,0.81,GA,1697128668
259,swift current,50.2834,-107.8014,5.45,87,100,5.66,CA,1697128668
260,namibe,-15.1961,12.1522,20.05,79,17,3.76,AO,1697128668
261,kismayo,-0.3582,42.5454,26.19,86,99,5.95,SO,1697128669
262,port saint john's,-31.6229,29.5448,16.52,89,100,10.04,ZA,1697128669
263,le port,-20.9373,55.2919,24.0,94,41,2.22,RE,1697128669
264,black river,18.0264,-77.8487,32.36,62,16,7.21,JM,1697128670
265,puerto armuelles,8.2833,-82.8667,28.99,74,92,2.24,PA,1697128670
266,port alfred,-33.5906,26.891,17.32,90,97,0.45,ZA,1697128671
267,ivdel',60.6911,60.4206,3.99,59,100,3.58,RU,1697128671
268,portland,45.5234,-122.6762,15.35,94,75,1.79,US,1697128596
269,ceeldheer,3.8488,47.1806,27.1,80,67,5.6,SO,1697128671
270,port lincoln,-34.7333,135.8667,11.37,81,1,4.55,AU,1697128577
271,vila velha,-20.3297,-40.2925,29.97,65,20,7.72,BR,1697128518
272,saudarkrokur,65.7461,-19.6394,2.66,91,100,12.22,IS,1697128672
273,crane,31.3974,-102.3501,28.97,25,0,9.47,US,1697128672
274,lihue,21.9789,-159.3672,23.77,85,75,5.66,US,1697128673
275,mukharram al fawqani,34.8151,37.0861,22.6,62,42,4.15,SY,1697128673
276,georgiyevka,43.0369,74.7114,15.02,63,40,3.0,KZ,1697128673
277,sao luiz gonzaga,-28.4083,-54.9608,13.42,84,99,4.89,BR,1697128673
278,saipan,15.1355,145.701,28.39,89,40,7.2,MP,1697128674
279,manjeshvar,12.7,74.8833,24.66,87,100,1.65,IN,1697128674
280,retreat,38.8245,-85.8533,24.3,60,4,0.45,US,1697128674
281,trairi,-3.2778,-39.2689,30.17,59,31,7.74,BR,1697128657
282,santa terezinha,-29.9002,-50.0904,14.8,84,100,5.51,BR,1697128675
283,detroit lakes,46.8172,-95.8453,11.16,62,0,8.75,US,1697128675
284,lakatoro,-16.0999,167.4164,24.02,78,65,3.96,VU,1697128675
285,niquero,20.0431,-77.5828,31.85,62,34,7.19,CU,1697128676
286,alta,69.9689,23.2717,3.59,84,75,6.69,NO,1697128664
287,arteche,12.2645,125.4048,25.95,86,67,1.15,PH,1697128676
288,pazaryolu,40.4208,40.771,10.85,48,0,1.11,TR,1697128676
289,karor,31.2274,70.9492,27.84,18,0,2.36,PK,1697128677
290,tsetserleg,47.475,101.4542,4.92,47,0,1.85,MN,1697128677
291,boa viagem,-5.1275,-39.7322,36.01,23,2,3.48,BR,1697128677
292,tsiombe,-25.3,45.4833,21.59,74,59,7.12,MG,1697128677
293,hammerfest,70.6634,23.6821,3.25,81,75,5.14,NO,1697128678
294,kataba,13.9833,44.3833,19.14,62,11,1.19,YE,1697128678
295,ambodifotatra,-16.9833,49.85,24.87,70,45,4.98,MG,1697128678
296,kristiansund,63.1115,7.732,7.36,87,75,8.23,NO,1697128679
297,nsanje,-16.92,35.262,33.2,23,94,0.52,MW,1697128679
298,kazaure,12.6513,8.4162,33.76,21,27,4.05,NG,1697128679
299,san marino,43.9333,12.4167,21.79,81,13,2.06,SM,1697128680
300,vanimo,-2.6741,141.3028,25.32,92,34,2.4,PG,1697128680
301,luderitz,-26.6481,15.1594,16.61,70,18,10.66,,1697128680
302,saint-pierre,-21.3393,55.4781,23.82,78,100,2.57,RE,1697128680
303,swakopmund,-22.6833,14.5333,21.47,81,6,3.13,,1697128681
304,chardara,41.2547,67.9692,14.21,64,100,6.46,KZ,1697128681
305,hovd,48.0056,91.6419,8.87,45,21,1.14,MN,1697128681
306,remire-montjoly,4.9167,-52.2667,34.02,52,0,5.66,GF,1697128682
307,port augusta,-32.5,137.7667,10.74,83,0,3.39,AU,1697128682
308,uige,-7.6087,15.0613,22.39,90,90,0.78,AO,1697128682
309,majdal shams,33.2684,35.7694,16.31,86,18,1.69,IL,1697128683
310,ajaccio,42.0,8.9167,20.99,64,0,2.57,FR,1697128683
311,ibiza,38.9088,1.433,25.68,75,75,3.09,ES,1697128486
312,carora,10.1755,-70.0827,36.28,30,11,0.89,VE,1697128683
313,kirensk,57.7853,108.1119,10.01,62,88,5.81,RU,1697128684
314,vila franca do campo,37.7167,-25.4333,22.23,75,11,4.96,PT,1697128684
315,umluj,25.0213,37.2685,28.46,68,0,5.59,SA,1697128684
316,mareeba,-17.0,145.4333,19.4,98,43,1.16,AU,1697128684
317,lafia,8.4833,8.5167,27.5,83,93,0.9,NG,1697128685
318,kendari,-3.945,122.4989,22.94,92,76,0.28,ID,1697128685
319,san agustin de valle fertil,-30.6335,-67.4682,18.84,28,0,6.69,AR,1697128685
320,marrakesh,31.6315,-8.0083,34.04,20,40,6.69,MA,1697128620
321,constantia,44.1833,28.65,16.5,66,0,7.46,RO,1697128686
322,syktyvkar,61.6764,50.8099,1.85,100,100,4.02,RU,1697128686
323,la sarre,48.8002,-79.1996,7.18,89,100,3.34,CA,1697128686
324,baiona,43.4833,-1.4833,30.3,37,0,1.54,FR,1697128687
325,sassandra,4.95,-6.0833,25.9,87,88,3.19,CI,1697128687
326,mersa matruh,31.3525,27.2453,25.11,65,20,3.6,EG,1697128687
327,nuuk,64.1835,-51.7216,9.34,37,20,4.12,GL,1697128688
328,korla,41.7597,86.1469,17.99,35,0,1.99,CN,1697128688
329,harper,4.375,-7.7169,25.73,87,87,2.11,LR,1697128688
330,aral,40.5156,81.2636,19.99,23,0,1.74,CN,1697128688
331,dapa,9.7594,126.0531,27.74,76,67,2.4,PH,1697128413
332,lata,40.1629,-8.3327,27.25,30,45,3.14,PT,1697128689
333,cidreira,-30.1811,-50.2056,14.61,79,100,6.06,BR,1697128689
334,fauske,67.2588,15.3918,6.02,88,100,1.06,NO,1697128689
335,itagi,-14.1628,-40.0061,35.0,23,6,2.52,BR,1697128690
336,brusque,-27.0981,-48.9175,20.05,99,99,1.28,BR,1697128690
337,lengshuitan,26.4111,111.5956,19.31,68,99,3.03,CN,1697128690
338,paimpol,48.7784,-3.0438,21.3,78,100,2.76,FR,1697128690
339,bac lieu,9.285,105.7244,27.08,80,97,0.89,VN,1697128691
340,severo-vostotchnyi bank,39.4112,49.2479,15.74,57,93,5.18,AZ,1697128691
341,bengkulu,-3.8004,102.2655,23.47,95,67,1.24,ID,1697128691
342,abqaiq,25.9371,49.6776,28.9,38,0,2.5,SA,1697128691
343,pimentel,-6.8367,-79.9342,24.16,64,0,5.66,PE,1697128692
344,sandnessjoen,66.0217,12.6316,7.06,81,75,2.57,NO,1697128692
345,baza,37.4907,-2.7726,26.34,29,73,1.11,ES,1697128692
346,el colomo,19.05,-104.25,29.99,67,71,1.18,MX,1697128693
347,porto novo,6.4965,2.6036,28.9,81,98,3.15,BJ,1697128693
348,mangalia,43.8,28.5833,15.84,67,0,5.15,RO,1697128693
349,saynshand,44.8824,110.1163,8.42,42,1,1.89,MN,1697128693
350,howard springs,-12.497,131.047,25.46,73,11,2.11,AU,1697128694
351,garachico,28.7781,-17.7646,27.06,51,0,3.09,ES,1697128694
352,shingu,33.7333,135.9833,14.58,80,36,2.73,JP,1697128694
353,urzhar,47.093,81.6294,18.21,32,92,1.91,KZ,1697128694
354,lebu,-37.6167,-73.65,11.36,66,0,9.42,CL,1697128695
355,paramonga,-10.6667,-77.8333,20.93,74,95,3.85,PE,1697128695
356,kokopo,-4.352,152.2633,25.18,87,87,2.09,PG,1697128695
357,svetlyy,54.675,20.1347,14.64,92,11,10.13,RU,1697128695
358,abepura,-2.6333,140.5833,25.45,83,20,1.54,ID,1697128696
359,borba,-4.3878,-59.5939,41.19,20,54,1.85,BR,1697128696
360,utrik,11.2278,169.8474,27.69,74,58,4.49,MH,1697128696
361,haverfordwest,51.8017,-4.9691,16.42,94,100,2.68,GB,1697128697
362,christchurch,-43.5333,172.6333,11.06,89,84,4.63,NZ,1697128587
363,nema,57.5067,50.5011,3.86,89,100,7.99,RU,1697128697
364,st. john's,47.5649,-52.7093,14.04,97,100,2.06,CA,1697128697
365,murgud,16.4,74.2,24.01,77,62,0.82,IN,1697128698
366,preobrazheniye,42.9019,133.9064,14.69,62,10,4.02,RU,1697128698
367,villa gesell,-37.2639,-56.973,10.93,58,6,5.1,AR,1697128698
368,camana,-16.6228,-72.7111,20.37,74,76,4.33,PE,1697128698
369,taltal,-25.4,-70.4833,19.17,65,42,2.97,CL,1697128699
370,tual,-5.6667,132.75,26.92,84,63,7.0,ID,1697128699
371,nieuw amsterdam,5.8833,-55.0833,36.19,46,40,4.12,SR,1697128699
372,bechar,31.6167,-2.2167,28.18,23,20,4.12,DZ,1697128700
373,coxim,-18.5067,-54.76,34.59,36,77,6.94,BR,1697128700
374,griffith,41.5284,-87.4237,15.05,93,100,4.12,US,1697128700
375,san antonio de pale,-1.4014,5.6325,25.48,83,33,5.6,GQ,1697128700
376,katsuura,35.1333,140.3,19.1,63,16,4.27,JP,1697128701
377,saluzzo,44.6464,7.4862,23.89,56,10,1.03,IT,1697128701
378,mount gambier,-37.8333,140.7667,11.81,70,99,4.78,AU,1697128701
379,fale old settlement,-9.3852,-171.2468,28.45,79,10,7.29,TK,1697128701
380,kuanda,56.3161,116.0806,6.44,70,98,0.86,RU,1697128702
381,vorkuta,67.5,64.0,-0.61,72,9,5.01,RU,1697128702
382,ketchikan,55.3422,-131.6461,13.99,82,100,5.14,US,1697128702
383,vorgashor,67.5833,63.95,-0.89,73,9,5.38,RU,1697128703
384,jalalaqsi,3.3766,45.5996,27.21,70,70,7.13,SO,1697128703
385,santana,-0.0583,-51.1817,34.1,52,40,5.14,BR,1697128703
386,copala,16.65,-98.9833,28.6,67,25,1.86,MX,1697128704
387,alice springs,-23.7,133.8833,17.75,32,0,3.6,AU,1697128704
388,saint-francois,46.4154,3.9054,24.69,53,0,1.03,FR,1697128704
389,alpine,32.835,-116.7664,19.82,76,0,0.0,US,1697128704
390,haci zeynalabdin,40.6233,49.5586,11.08,51,13,3.76,AZ,1697128705
391,mezhdurechenskiy,59.6,65.9333,3.5,89,100,2.68,RU,1697128705
392,al kharj,24.155,47.3346,34.32,10,0,3.62,SA,1697128705
393,chibougamau,49.9168,-74.3659,8.79,81,100,2.06,CA,1697128706
394,pajok,3.8651,32.4821,21.98,82,95,1.68,SS,1697128706
395,brookings,44.3114,-96.7984,7.88,93,100,8.23,US,1697128706
396,harstad,68.799,16.5293,1.56,83,100,4.02,NO,1697128707
397,maluso,6.543,121.8753,26.84,82,49,1.9,PH,1697128707
398,art khwajah,37.0857,69.4796,22.57,28,78,3.5,AF,1697128707
399,karratha,-20.7377,116.8463,26.85,53,2,4.18,AU,1697128708
400,itambacuri,-18.0311,-41.685,35.86,24,11,2.9,BR,1697128708
401,stettler,52.3168,-112.7186,8.86,81,88,3.09,CA,1697128708
402,ikang,4.7898,8.5316,30.41,83,94,2.16,NG,1697128708
403,hekimhan,38.818,37.9312,11.29,38,0,0.99,TR,1697128709
404,nadym,65.5333,72.5167,0.13,82,43,3.08,RU,1697128709
405,kaman,27.65,77.2667,28.03,24,0,1.44,IN,1697128709
406,aasiaat,68.7098,-52.8699,-7.62,76,66,5.54,GL,1697128710
407,san clemente del tuyu,-36.3569,-56.7235,12.77,58,51,3.96,AR,1697128710
408,manokwari,-0.8667,134.0833,25.7,82,13,1.69,ID,1697128710
409,trincomalee,8.5711,81.2335,25.99,86,100,5.33,LK,1697128710
410,myski,53.709,87.8014,8.91,87,100,1.53,RU,1697128711
411,amahai,-3.3333,128.9167,25.11,90,87,1.12,ID,1697128711
412,bumba,2.1833,22.4667,24.26,81,71,1.36,CD,1697128711
413,bani walid,31.7566,13.9942,25.43,33,0,3.61,LY,1697128711
414,cabo san lucas,22.8909,-109.9124,29.78,61,0,8.23,MX,1697128712
415,tralee,52.2704,-9.7026,13.14,94,100,2.57,IE,1697128712
416,gusinje,42.5638,19.8333,13.91,71,0,0.75,ME,1697128712
417,minas de marcona,-15.2119,-75.1103,19.26,59,86,5.94,PE,1697128712
418,rabo de peixe,37.8,-25.5833,21.73,78,20,7.2,PT,1697128713
419,kearney,40.6995,-99.0815,18.31,94,100,7.2,US,1697128713
420,la passe,45.5549,-0.8967,28.13,54,90,2.23,FR,1697128713
421,tete,-16.1564,33.5867,38.05,20,20,3.09,MZ,1697128713
422,mitu,1.1983,-70.1733,33.28,44,86,1.59,CO,1697128714
423,zhalantun,48.0,122.7167,10.13,53,0,2.02,CN,1697128714
424,mikun',62.3547,50.0771,3.22,100,100,3.8,RU,1697128714
425,el rosario,24.2556,-107.1828,30.03,60,0,6.36,MX,1697128714
426,namdrik,5.5994,168.1028,28.41,74,87,2.78,MH,1697128715
427,port-vila,-17.7338,168.3219,21.78,94,75,1.54,VU,1697128715
428,mukalla,14.5425,49.1242,27.84,73,12,3.23,YE,1697128715
429,purranque,-40.9167,-73.1667,11.63,48,36,2.9,CL,1697128715
430,reggane,26.7158,0.1714,33.86,14,7,2.94,DZ,1697128716
431,tazovsky,67.4667,78.7,0.67,97,100,1.99,RU,1697128716
432,cauquenes,-35.9671,-72.3225,18.35,43,0,4.14,CL,1697128716
433,metropolis,37.1512,-88.732,23.43,59,0,1.54,US,1697128717
434,kununurra,-15.7667,128.7333,25.99,65,81,0.0,AU,1697128570
435,sao tome,0.3365,6.7273,28.02,78,75,2.57,ST,1697128717
436,cururupu,-1.8283,-44.8683,31.84,50,52,3.71,BR,1697128489
437,roma,43.2128,-75.4557,16.09,73,100,0.0,US,1697128488
438,anloga,5.7947,0.8973,25.46,80,100,3.65,GH,1697128718
439,zapala,-38.8992,-70.0544,14.74,23,0,2.4,AR,1697128718
440,mochudi,-24.4167,26.15,29.33,20,100,4.65,BW,1697128718
441,moree,-29.4667,149.85,15.19,51,9,6.51,AU,1697128718
442,jingdezhen,29.2947,117.2079,18.74,81,99,1.33,CN,1697128719
443,chonchi,-42.6128,-73.8092,11.56,57,89,1.65,CL,1697128719
444,susuman,62.7833,148.1667,-12.23,77,100,0.89,RU,1697128719
445,amga,60.8953,131.9608,2.21,97,100,0.89,RU,1697128719
446,qalat,32.1058,66.9083,20.74,17,9,3.01,AF,1697128720
447,shadrinsk,56.0852,63.6335,4.83,66,100,5.17,RU,1697128720
448,kalmunai,7.4167,81.8167,25.6,87,100,0.55,LK,1697128720
449,asau,46.4333,26.4,16.51,61,21,2.99,RO,1697128721
450,sechura,-5.5569,-80.8222,26.98,56,87,4.3,PE,1697128721
451,lae,-6.7221,146.9847,24.3,85,77,2.46,PG,1697128721
452,nova sintra,14.8667,-24.7167,24.74,74,58,1.94,CV,1697128721
453,weiser,44.251,-116.9693,11.47,76,7,0.45,US,1697128722
454,ta`u,-14.2336,-169.5144,27.04,80,31,6.9,AS,1697128722
455,great falls,47.5002,-111.3008,8.25,98,100,4.63,US,1697128722
456,dwarka,22.2394,68.9678,27.58,71,0,3.96,IN,1697128723
457,singkawang,0.9,109.0,25.48,90,100,1.31,ID,1697128723
458,kirkwall,58.9848,-2.9587,10.03,81,75,4.12,GB,1697128723
459,yako,12.9667,-2.2667,25.03,81,65,6.91,BF,1697128724
460,posto fiscal rolim de moura,-13.0833,-62.2667,38.65,27,98,1.5,BR,1697128724
461,batticaloa,7.7102,81.6924,26.25,83,100,2.25,LK,1697128724
462,yeppoon,-23.1333,150.7333,15.88,78,0,2.94,AU,1697128724
463,port moresby,-9.4431,147.1797,23.15,96,100,1.13,PG,1697128725
464,butte,39.6499,-121.5677,18.88,50,0,1.6,US,1697128725
465,gubkinskiy,64.434,76.5026,1.37,99,100,3.83,RU,1697128725
466,pangody,65.85,74.4859,-0.3,87,90,2.17,RU,1697128726
467,udachny,66.4167,112.4,-6.97,85,33,4.92,RU,1697128726
468,thetford-mines,46.0937,-71.3054,9.06,95,100,2.3,CA,1697128548
469,sinabang,2.4803,96.3801,25.7,86,96,1.25,ID,1697128726
470,fortaleza,-3.7227,-38.5247,31.07,58,20,9.26,BR,1697128727
471,zanesville,39.9404,-82.0132,21.59,53,20,1.54,US,1697128727
472,villa rica,33.7321,-84.9191,18.66,87,100,2.24,US,1697128727
473,ain sefra,32.75,-0.5833,22.9,22,1,5.04,DZ,1697128727
474,sabang,5.8933,95.3214,27.74,77,39,4.56,ID,1697128728
475,sparti,37.0733,22.4297,21.64,72,3,0.6,GR,1697128728
476,velizh,55.6056,31.1967,10.12,79,71,6.09,RU,1697128728
477,island harbour,50.724,-1.2758,18.04,93,100,1.79,GB,1697128728
478,gadani,25.1185,66.7299,28.12,78,8,4.25,PK,1697128729
479,valparaiso,-33.0393,-71.6273,24.13,37,0,7.72,CL,1697128499
480,kodinsk,58.6881,99.1844,5.24,78,100,2.41,RU,1697128729
481,pitkyaranta,61.5734,31.4792,9.73,73,66,11.57,RU,1697128729
482,maceio,-9.6658,-35.7353,29.69,65,75,8.23,BR,1697128730
483,menongue,-14.6585,17.691,24.63,40,93,2.69,AO,1697128730
484,kharkhorin,47.1975,102.8238,6.73,46,1,2.0,MN,1697128730
485,pervomaysk,48.0443,30.8507,14.74,58,66,6.06,UA,1697128730
486,bandarbeyla,9.4942,50.8122,26.53,85,1,4.19,SO,1697128731
487,pohang,36.0322,129.365,15.92,73,100,1.56,KR,1697128731
488,mont-roig del camp,41.75,1.1833,27.87,29,0,2.1,ES,1697128731
489,karachi,24.9056,67.0822,27.9,74,20,3.09,PK,1697128542
490,nkhotakota,-12.9274,34.2961,25.82,55,20,1.42,MW,1697128732
491,la rinconada,37.4873,-5.9826,33.4,31,0,1.03,ES,1697128732
492,morshyn,49.1565,23.8723,17.15,53,66,6.01,UA,1697128732
493,tofol,5.3248,163.0078,28.49,75,74,4.36,FM,1697128733
494,suva,-18.1416,178.4415,20.71,94,75,1.03,FJ,1697128733
495,atar,20.5169,-13.0499,38.84,9,61,5.3,MR,1697128733
496,darovskoy,58.77,47.9564,4.96,93,100,5.27,RU,1697128733
497,sergeyevka,53.88,67.4158,3.75,70,19,3.34,KZ,1697128639
498,newman,37.3138,-121.0208,16.7,35,36,3.09,US,1697128734
499,rebola,3.7167,8.8333,25.62,83,75,3.6,GQ,1697128491
500,afaahiti,-17.75,-149.2833,22.93,76,32,7.09,PF,1697128734
501,kayangel,8.0823,134.7173,28.25,79,100,8.48,PW,1697128735
502,lima,-12.0432,-77.0282,18.14,77,75,3.6,PE,1697128735
503,ocos,14.5094,-92.1933,30.1,75,74,1.19,GT,1697128735
504,isyangulovo,52.1909,52.1909,5.93,46,66,9.71,RU,1697128735
505,paita,-5.0892,-81.1144,24.01,68,78,5.42,PE,1697128736
506,kargasok,59.0556,80.8572,4.98,79,93,6.26,RU,1697128736
507,neyriz,29.1988,54.3278,23.04,17,1,1.14,IR,1697128736
508,rio grande,-32.035,-52.0986,16.06,57,81,6.83,BR,1697128736
509,tanout,14.9709,8.8879,34.2,16,45,6.44,NE,1697128737
510,palmer,42.1584,-72.3287,20.69,52,20,2.57,US,1697128737
511,jerseyville,39.12,-90.3285,23.77,42,0,7.21,US,1697128737
512,djambala,-2.5447,14.7533,23.32,80,93,0.77,CG,1697128738
513,lamu,-2.2717,40.902,26.12,87,100,4.97,KE,1697128738
514,fukuecho,32.6881,128.8419,21.32,61,69,8.15,JP,1697128738
515,quellon,-43.1167,-73.6167,8.87,66,87,4.55,CL,1697128738
516,ylitornio,66.3089,23.6773,1.66,87,100,7.67,FI,1697128739
517,chabahar,25.2919,60.643,28.73,73,0,2.28,IR,1697128739
518,chui,-33.6971,-53.4616,12.62,47,16,5.41,UY,1697128739
519,cannonvale,-20.2833,148.7,21.66,74,21,4.01,AU,1697128739
520,kili,5.6439,169.1211,28.53,74,78,2.94,MH,1697128740
521,mohr,54.3528,9.7167,12.08,79,20,2.06,DE,1697128740
522,yung shue wan,22.2333,114.1167,26.68,68,69,5.3,HK,1697128740
523,leava,-14.3,-178.1667,26.4,85,100,10.81,WF,1697128740
524,zhaozhou,45.6833,125.3167,12.05,49,0,2.98,CN,1697128741
525,poronaysk,49.2167,143.1167,9.6,67,4,3.9,RU,1697128741
526,serenje,-13.2325,30.2352,27.15,26,88,3.69,ZM,1697128741
527,vavuniya,8.7514,80.4971,23.66,97,100,1.99,LK,1697128741
528,tutoia,-2.7619,-42.2744,29.7,61,48,6.36,BR,1697128742
529,kvissleby,62.2936,17.375,6.91,67,17,6.38,SE,1697128742
530,galliano,29.4422,-90.2992,20.0,77,100,1.54,US,1697128743
531,nuku'alofa,-21.1333,-175.2,18.19,94,20,1.54,TO,1697128743
532,boende,-0.2167,20.8667,26.91,64,37,1.01,CD,1697128743
533,ndjole,-0.1783,10.7649,26.07,92,90,1.24,GA,1697128743
534,saint-louis,16.3333,-15.0,35.8,25,42,1.87,SN,1697128744
535,betare oya,5.6,14.0833,21.97,91,43,1.86,CM,1697128744
536,darwin,-12.4611,130.8418,25.5,83,17,0.0,AU,1697128509
537,samut sakhon,13.5833,100.3,28.99,87,99,1.92,TH,1697128743
538,johnston,35.5335,-78.3997,20.29,91,75,0.0,US,1697128745
539,dolinsk,47.35,142.8,7.07,85,67,4.18,RU,1697128745
540,betio village,1.358,172.9211,27.02,72,50,3.16,KI,1697128745
541,rongelap,11.1635,166.8941,28.25,74,33,4.99,MH,1697128746
542,lowicz,52.1071,19.9453,13.33,86,100,4.76,PL,1697128746
543,nahrin,36.0649,69.1334,18.08,32,78,1.3,AF,1697128746
544,obo,5.3998,26.4869,25.43,70,70,1.44,CF,1697128746
545,boa vista,2.8197,-60.6733,35.99,36,40,5.14,BR,1697128747
546,port douglas,-16.4833,145.4667,22.02,77,58,4.43,AU,1697128747
547,rawson,-43.3002,-65.1023,11.3,52,32,7.48,AR,1697128747
548,jakiri,6.1,10.65,17.29,91,52,0.81,CM,1697128748
549,semera,11.501,41.201,32.29,31,40,6.51,ET,1697128748
550,tarrafal de sao nicolau,16.5667,-24.3667,26.67,79,76,3.74,CV,1697128748
551,rio preto da eva,-2.6994,-59.6997,42.18,17,16,2.13,BR,1697128748
552,brownwood,31.7093,-98.9912,27.0,59,0,6.69,US,1697128749
553,bridgewater,44.3835,-64.5155,19.26,59,20,4.12,CA,1697128749
554,natal,-5.795,-35.2094,30.36,66,40,7.72,BR,1697128640
555,zuwarah,32.9312,12.082,25.03,57,0,4.05,LY,1697128749
556,kidal,18.4411,1.4078,36.83,9,61,3.51,ML,1697128750
557,inderbor,48.55,51.7833,8.55,42,5,3.87,KZ,1697128750
558,carauari,-4.8828,-66.8958,39.62,29,56,0.1,BR,1697128576
559,tefe,-3.3542,-64.7114,33.06,62,40,3.09,BR,1697128750
560,juliaca,-15.5,-70.1333,17.99,27,0,2.57,PE,1697128751
561,val-d'or,48.1002,-77.7828,7.05,93,100,2.57,CA,1697128568
562,mirandela,41.4874,-7.187,31.28,22,19,3.76,PT,1697128751
563,chernyshevskiy,63.0128,112.4714,0.39,99,100,2.72,RU,1697128752
564,laela,-8.5667,32.05,24.75,29,97,0.9,TZ,1697128752
565,puerto penasco,31.3167,-113.5333,26.0,60,0,3.73,MX,1697128572
566,ingeniero jacobacci,-41.3427,-69.5448,13.61,30,1,2.14,AR,1697128752
567,chernyanka,50.9409,37.8069,12.69,42,100,9.79,RU,1697128753
568,zhongshan,21.3226,110.5829,25.3,83,100,4.62,CN,1697128753
569,vilyuysk,63.7553,121.6247,3.43,87,100,1.79,RU,1697128753
570,akureyri,65.6835,-18.0878,1.96,87,100,4.63,IS,1697128753
571,talara,-4.5772,-81.2719,28.42,54,0,7.94,PE,1697128754
572,callaway,30.153,-85.5699,21.96,90,75,1.79,US,1697128754
573,yangon,16.8053,96.1561,26.98,94,40,1.54,MM,1697128754
574,polyarnyy,69.1989,33.4478,2.55,96,100,12.1,RU,1697128755
575,bam,29.106,58.357,29.22,15,5,2.9,IR,1697128755
